[
  {
    "name": "Vortex Fitness | დიდი დიღომი",
    "image": "https://nyamie.com/uploads/entity/medium/16_9_entity-4443-665d3dbc1c976.png",
    "cordinats": {
      "targetLat": 41.787215271567234,
      "targetLon": 44.753655253886556
    }
  },
  {
    "name": "Reform Sport Club | გლდანი",
    "image": "https://nyamie.com/uploads/entity/medium/16_9_entity-1526-64491650cd5cf.png",
    "cordinats": {
      "targetLat": 41.79391466615021,
      "targetLon": 44.81792764854391
    }
  },
  {
    "name": "Vortex Fitness | ლიდერსპორტ არენა",
    "image": "https://nyamie.com/uploads/entity/medium/16_9_entity-1958-653b92cd325f0.jpg",
    "cordinats": {
      "targetLat": 41.71827325510709,
      "targetLon": 44.742165698284886
    }
  },
  {
    "name": "Reform Sport Club | ნუცუბიძე",
    "image": "https://nyamie.com/uploads/entity/medium/16_9_entity-2299-65dda019c2e55.png",
    "cordinats": {
      "targetLat": 41.73280360854842,
      "targetLon": 44.7224190054915
    }
  },
  {
    "name": "Sakemata • საკემატა | ისთ ფოინთი",
    "image": "https://nyamie.com/uploads/entity/medium/16_9_entity-2082-6602ca4cae079.JPG",
    "cordinats": {
      "targetLat": 41.6770181,
      "targetLon": 44.8741035
    }
  },
  {
    "name": "Fitness Time • ფიტნეს თაიმ",
    "image": "https://nyamie.com/uploads/entity/medium/16_9_entity-2186-6535fe78bb88f.png",
    "cordinats": {
      "targetLat": 41.7929735202176,
      "targetLon": 44.81688950341439
    }
  },
  {
    "name": "Black Sea 2 • ბლექ სი 2",
    "image": "https://nyamie.com/uploads/entity/medium/16_9_entity-1568-632996f1ae15a.jpeg",
    "cordinats": {
      "targetLat": 41.7910053,
      "targetLon": 44.8114283
    }
  },
  {
    "name": "Meteor Club • მეტეორ ქლაბი",
    "image": "https://nyamie.com/uploads/entity/medium/16_9_entity-5082-67319b0ddc7c3.jpg",
    "cordinats": {
      "targetLat": 41.76881433873366,
      "targetLon": 44.79385807563541
    }
  },
  {
    "name": "Vision Academy",
    "image": "https://nyamie.com/uploads/entity/medium/16_9_entity-1917-6761362e0effa.jpg",
    "cordinats": {
      "targetLat": 41.7655658386756,
      "targetLon": 44.79077510649298
    }
  },
  {
    "name": "Mamber fitness • მამბერ ფიტნესი",
    "image": "https://nyamie.com/uploads/entity/medium/16_9_entity-2132-6509442031baa.JPG",
    "cordinats": {
      "targetLat": 41.75055295363965, 
      "targetLon": 44.78570637158657
    }
  },
  {
    "name": "Poolinaria • პულინარია",
    "image": "https://nyamie.com/uploads/entity/medium/16_9_entity-2650-66052d3162b05.jpeg",
    "cordinats": {
      "targetLat": 41.750323384466185, 
      "targetLon": 44.7807780588972
    }
  }
]
